City_ID,City,Lat,Lng,Max Temp,Humidity,Cloudiness,Wind Speed,Country,Date
0,domazlice,49.4405,12.9298,2.97,98,100,7.0,CZ,1675222989
1,beringovskiy,63.05,179.3167,-6.11,97,59,3.46,RU,1675222990
2,namibe,-15.1961,12.1522,21.92,82,100,2.35,AO,1675222991
3,anastacio,-20.4836,-55.8069,22.29,95,100,1.01,BR,1675222710
4,mount gambier,-37.8333,140.7667,18.06,41,91,4.16,AU,1675222992
5,saint george,37.1041,-113.5841,-0.32,37,0,4.12,US,1675222772
6,tuktoyaktuk,69.4541,-133.0374,-39.0,74,0,1.54,CA,1675222993
7,punta arenas,-53.15,-70.9167,12.06,62,75,8.23,CL,1675222993
8,east london,-33.0153,27.9116,21.95,78,4,2.06,ZA,1675222913
9,yellowknife,62.456,-114.3525,-31.71,68,0,5.66,CA,1675222811
10,bluff,-46.6,168.3333,17.15,87,100,3.58,NZ,1675222972
11,stephenville,32.2207,-98.2023,-2.68,82,100,4.12,US,1675222996
12,puerto escondido,15.85,-97.0667,26.46,78,40,0.0,MX,1675222997
13,san patricio,28.017,-97.5169,3.93,84,100,6.12,US,1675222998
14,busselton,-33.65,115.3333,26.21,34,0,5.02,AU,1675222998
15,port alfred,-33.5906,26.891,22.25,81,3,2.62,ZA,1675222999
16,mataura,-46.1927,168.8643,21.32,74,100,1.51,NZ,1675222999
17,nishihara,26.1842,127.7558,22.81,58,75,5.66,JP,1675223001
18,manta,-0.95,-80.7333,25.88,83,75,2.57,EC,1675223002
19,vaini,-21.2,-175.2,28.09,83,75,4.12,TO,1675223002
20,coahuayana,18.7333,-103.6833,20.26,91,6,1.57,MX,1675223003
21,geraldton,-28.7667,114.6,33.23,33,0,7.72,AU,1675223004
22,pailon,-17.65,-62.75,23.5,96,100,1.63,BO,1675223005
23,rikitea,-23.1203,-134.9692,26.22,70,5,6.38,PF,1675223006
24,meadow lake,34.8014,-106.5436,4.51,49,14,3.94,US,1675223006
25,pisco,-13.7,-76.2167,23.03,78,0,3.09,PE,1675223007
26,puerto ayora,-0.7393,-90.3518,24.75,89,74,2.05,EC,1675223008
27,nizwa,22.9333,57.5333,17.24,46,2,1.32,OM,1675223009
28,srednekolymsk,67.45,153.6833,-29.18,95,97,1.03,RU,1675223009
29,ballangen,68.3428,16.8315,-2.74,100,75,0.0,NO,1675223010
30,tuatapere,-46.1333,167.6833,21.63,69,97,2.19,NZ,1675223012
31,kapaa,22.0752,-159.319,25.99,84,20,4.12,US,1675223013
32,new norfolk,-42.7826,147.0587,18.29,35,62,2.68,AU,1675223014
33,kodiak,57.79,-152.4072,2.73,93,100,2.57,US,1675223015
34,georgetown,5.4112,100.3354,28.97,74,20,2.57,MY,1675222897
35,artesia,33.8658,-118.0831,15.5,41,0,0.45,US,1675223016
36,bhuj,23.2667,69.6667,19.29,51,4,7.05,IN,1675222829
37,ushuaia,-54.8,-68.3,13.81,51,40,6.17,AR,1675223017
38,saint-philippe,-21.3585,55.7679,26.17,86,91,5.09,RE,1675223017
39,ferrol,43.4832,-8.2369,7.62,84,11,3.0,ES,1675223018
40,albany,42.6001,-73.9662,-6.47,65,97,1.56,US,1675222951
41,pokhara,28.2333,83.9833,21.26,17,0,2.33,NP,1675223018
42,ponta do sol,32.6667,-17.1,15.4,60,65,2.58,PT,1675223019
43,russkaya polyana,49.417,31.9201,-0.71,91,100,2.33,UA,1675223019
44,hofn,64.2539,-15.2082,-2.35,65,96,5.81,IS,1675223020
45,butaritari,3.0707,172.7902,26.89,78,89,7.71,KI,1675223020
46,sawtell,-30.3833,153.1,30.1,69,24,3.6,AU,1675223021
47,fairmont,39.4851,-80.1426,-1.45,95,100,1.13,US,1675223021
48,hermanus,-34.4187,19.2345,18.22,92,3,1.46,ZA,1675223021
49,lebu,-37.6167,-73.65,13.67,85,0,9.19,CL,1675223022
50,qaanaaq,77.484,-69.3632,-21.81,48,81,3.1,GL,1675223022
51,tarakan,3.3,117.6333,24.72,88,100,2.05,ID,1675223023
52,hilo,19.7297,-155.09,24.04,95,40,3.6,US,1675223023
53,tiksi,71.6872,128.8694,-17.99,98,100,3.59,RU,1675223023
54,angoche,-16.2325,39.9086,25.21,82,71,2.65,MZ,1675223024
55,shahdadkot,27.8477,67.9055,16.68,35,0,0.9,PK,1675223024
56,sourpi,39.1,22.9,5.29,75,20,3.09,GR,1675223025
57,sechura,-5.5569,-80.8222,23.99,72,95,1.8,PE,1675223025
58,broome,42.2506,-75.833,-6.66,82,0,2.06,US,1675223026
59,chapais,49.7834,-74.8492,-21.12,93,100,4.98,CA,1675223026
60,faanui,-16.4833,-151.75,27.53,74,100,6.25,PF,1675223027
61,arraial do cabo,-22.9661,-42.0278,24.15,89,89,10.91,BR,1675223027
62,avera,33.194,-82.5271,16.03,96,100,2.81,US,1675223028
63,rawlins,41.7911,-107.2387,-12.03,56,0,1.54,US,1675222770
64,port hedland,-20.3167,118.5667,35.03,55,25,4.12,AU,1675223028
65,sabha,27.0377,14.4283,6.27,49,0,3.35,LY,1675223029
66,tasiilaq,65.6145,-37.6368,-11.91,72,95,3.3,GL,1675223029
67,coihaique,-45.5752,-72.0662,12.34,66,0,1.54,CL,1675223030
68,hobart,-42.8794,147.3294,17.92,59,75,2.06,AU,1675222761
69,poso,-1.3959,120.7524,24.96,94,100,1.91,ID,1675223030
70,merced,37.1666,-120.7516,7.94,60,1,0.4,US,1675223031
71,traverse city,44.7631,-85.6206,-7.89,74,100,2.06,US,1675222974
72,belyy yar,53.6039,91.3903,-17.06,85,75,0.0,RU,1675223032
73,saint-pierre,-21.3393,55.4781,26.21,88,100,5.14,RE,1675223033
74,umm kaddadah,13.6017,26.6876,18.88,23,34,7.37,SD,1675223033
75,pacific grove,36.6177,-121.9166,8.57,73,0,1.54,US,1675223033
76,kaitangata,-46.2817,169.8464,18.62,83,99,2.77,NZ,1675223034
77,hami,42.8,93.45,-1.38,29,95,0.9,CN,1675223034
78,poum,-20.2333,164.0167,26.68,61,83,1.98,NC,1675223035
79,talnakh,69.4865,88.3972,-17.87,96,100,4.5,RU,1675223035
80,shunyi,40.125,116.6453,0.97,15,0,4.0,CN,1675223036
81,atuona,-9.8,-139.0333,26.1,77,78,10.34,PF,1675223036
82,cape town,-33.9258,18.4232,22.43,82,20,5.66,ZA,1675222769
83,mar del plata,-38.0023,-57.5575,20.53,86,75,4.47,AR,1675222972
84,bredasdorp,-34.5322,20.0403,18.15,94,10,2.22,ZA,1675223037
85,mareeba,-17.0,145.4333,27.4,96,100,1.6,AU,1675223038
86,atar,20.5169,-13.0499,18.31,22,80,2.2,MR,1675223038
87,chokurdakh,70.6333,147.9167,-18.77,97,100,3.28,RU,1675223038
88,sola,-13.8833,167.55,28.37,84,100,0.0,VU,1675223039
89,carutapera,-1.195,-46.02,23.67,95,100,1.51,BR,1675223039
90,rhyl,53.3196,-3.4886,8.8,3,93,9.17,GB,1675223040
91,cap-chat,49.1001,-66.6821,-13.0,66,96,10.29,CA,1675223040
92,carnarvon,-24.8667,113.6333,27.57,66,38,6.66,AU,1675223040
93,northam,51.0333,-4.2167,8.12,83,12,8.51,GB,1675223041
94,kalevala,65.2,31.1667,-13.06,97,87,2.85,RU,1675223041
95,severo-kurilsk,50.6789,156.125,-3.57,52,66,1.56,RU,1675223043
96,jamestown,42.097,-79.2353,-8.03,85,40,1.54,US,1675222856
97,kristiinankaupunki,62.2743,21.376,-3.83,91,18,2.18,FI,1675223045
98,tezu,27.9167,96.1667,25.59,23,100,1.42,IN,1675223046
99,matara,5.9485,80.5353,26.98,72,96,3.79,LK,1675223047
100,marsaxlokk,35.8419,14.5431,8.34,76,20,2.06,MT,1675223047
101,victoria,22.2855,114.1577,24.42,78,52,4.92,HK,1675222937
102,guerrero negro,27.9769,-114.0611,13.56,59,10,4.0,MX,1675223048
103,chuy,-33.6971,-53.4616,21.17,92,5,2.49,UY,1675223049
104,toora-khem,52.4675,96.11,-17.15,95,93,0.94,RU,1675223050
105,kitaibaraki,36.7833,140.75,11.75,43,1,7.14,JP,1675223051
106,dikson,73.5069,80.5464,-23.51,92,35,3.79,RU,1675223051
107,saint-augustin,51.226,-58.6502,-23.12,85,1,3.18,CA,1675223052
108,kenai,60.5544,-151.2583,0.05,89,100,1.54,US,1675223052
109,port elizabeth,-33.918,25.5701,20.17,94,0,1.79,ZA,1675223053
110,nanakuli,21.3906,-158.1547,27.65,63,75,3.09,US,1675223055
111,okha,53.5739,142.9478,-21.14,87,21,5.08,RU,1675223056
112,huarmey,-10.0681,-78.1522,22.16,78,99,2.74,PE,1675223050
113,bahia de caraquez,-0.6,-80.4167,26.1,85,98,2.7,EC,1675223057
114,saskylakh,71.9167,114.0833,-28.27,98,100,7.41,RU,1675223057
115,torbay,47.6666,-52.7314,0.88,95,100,5.66,CA,1675223058
116,leningradskiy,69.3833,178.4167,-14.91,96,100,4.29,RU,1675223060
117,thompson,55.7435,-97.8558,-33.91,68,20,0.0,CA,1675222778
118,hurghada,27.2574,33.8129,13.02,41,0,4.12,EG,1675223061
119,ginda,30.6945,78.4932,12.61,17,0,1.01,IN,1675223063
120,teahupoo,-17.8333,-149.2667,26.96,76,18,7.43,PF,1675223064
121,khombole,14.7667,-16.7,18.45,60,54,4.49,SN,1675223064
122,matagami,49.7502,-77.6328,-12.94,85,100,2.57,CA,1675223065
123,mount isa,-20.7333,139.5,31.87,43,40,3.09,AU,1675223066
124,dunedin,-45.8742,170.5036,18.22,10,100,1.34,NZ,1675223067
125,antofagasta,-23.65,-70.4,21.01,81,99,0.85,CL,1675222962
126,flagstaff,35.1981,-111.6513,-2.19,74,0,3.6,US,1675222942
127,yichang,30.7144,111.2847,16.9,22,0,4.87,CN,1675223068
128,ostrovnoy,68.0531,39.5131,-7.45,97,96,2.34,RU,1675223069
129,vanimo,-2.6741,141.3028,28.38,76,94,2.3,PG,1675223070
130,isangel,-19.55,169.2667,32.06,70,75,2.06,VU,1675223071
131,nikolskoye,59.7035,30.7861,-0.05,86,99,3.89,RU,1675223071
132,guangzhou,23.1167,113.25,21.97,57,95,1.86,CN,1675223072
133,khatanga,71.9667,102.5,-42.81,100,63,1.17,RU,1675223073
134,batticaloa,7.7102,81.6924,24.68,88,100,8.84,LK,1675223074
135,shingu,33.7333,135.9833,14.36,54,100,6.2,JP,1675223075
136,mackay,-21.15,149.2,28.99,81,100,5.62,AU,1675223077
137,kavieng,-2.5744,150.7967,28.78,71,91,3.8,PG,1675223078
138,gorontalo,0.5412,123.0595,29.87,69,100,3.52,ID,1675223079
139,avarua,-21.2078,-159.775,25.03,94,75,4.63,CK,1675223079
140,bardiyah,31.7561,25.0865,13.02,65,62,9.79,LY,1675223080
141,nuuk,64.1835,-51.7216,-15.19,88,100,6.31,GL,1675222907
142,petropavlovsk-kamchatskiy,53.0452,158.6483,-7.67,49,0,1.0,RU,1675223080
143,taclobo,12.3074,122.586,26.74,80,17,5.1,PH,1675223081
144,anloga,5.7947,0.8973,26.35,80,77,2.67,GH,1675223081
145,itabera,-23.8619,-49.1372,19.73,98,100,1.13,BR,1675223082
146,labuhan,-6.8844,112.2051,27.94,76,100,3.5,ID,1675223082
147,ulladulla,-35.35,150.4667,23.36,65,13,4.94,AU,1675223082
148,dingle,10.9995,122.6711,28.39,76,50,6.91,PH,1675223083
149,shumskiy,54.8318,99.1328,-9.34,74,99,0.71,RU,1675223083
150,esperance,-33.8667,121.9,18.64,58,93,6.44,AU,1675223084
151,boulder city,35.9786,-114.8325,4.69,22,0,2.57,US,1675223084
152,padang,-0.9492,100.3543,29.03,73,100,2.1,ID,1675223084
153,bethel,41.3712,-73.414,-1.25,60,75,2.06,US,1675223085
154,sitka,57.0531,-135.33,3.94,81,100,5.14,US,1675223085
155,prelouc,50.0398,15.5603,4.83,76,75,9.26,CZ,1675223086
156,castro,-24.7911,-50.0119,17.31,98,100,1.22,BR,1675223086
157,brae,60.3964,-1.353,6.37,87,97,17.2,GB,1675223087
158,henties bay,-22.116,14.2845,17.44,87,100,2.56,NA,1675223087
159,coxim,-18.5067,-54.76,24.46,87,99,1.13,BR,1675223088
160,muroto,33.2833,134.15,11.54,59,96,4.68,JP,1675223088
161,aklavik,68.2191,-135.0107,-35.12,100,68,2.46,CA,1675223088
162,majene,-3.5403,118.9707,29.68,65,99,3.97,ID,1675223089
163,panguna,-6.3164,155.4848,25.61,76,97,1.39,PG,1675223089
164,constitucion,-35.3333,-72.4167,12.58,81,1,3.41,CL,1675223090
165,aleksandrovsk-sakhalinskiy,50.8975,142.1561,-15.46,86,37,1.31,RU,1675223090
166,kibala,9.1104,18.3463,20.97,52,0,0.0,TD,1675223091
167,pemba,-12.974,40.5178,25.14,86,6,2.91,MZ,1675223091
168,caen,49.0833,-0.4167,6.12,81,100,4.63,FR,1675223091
169,awbari,26.5921,12.7805,5.6,38,2,2.77,LY,1675223092
170,shubarshi,48.5872,57.1869,-12.59,78,11,3.68,KZ,1675223092
171,luderitz,-26.6481,15.1594,15.5,91,7,4.36,NA,1675223093
172,namatanai,-3.6667,152.4333,28.58,71,99,3.55,PG,1675223093
173,wajima,37.4,136.9,4.38,100,75,8.75,JP,1675223094
174,lokosovo,61.1333,74.8167,-11.39,95,100,4.14,RU,1675223094
175,port-gentil,-0.7193,8.7815,26.75,80,28,6.26,GA,1675223095
176,springfield,37.2153,-93.2982,-6.93,77,0,1.54,US,1675222816
177,gubkin,51.2817,37.5458,-4.6,88,98,2.48,RU,1675223095
178,barcelos,41.5388,-8.6151,7.6,72,47,2.05,PT,1675223096
179,isla vista,34.4133,-119.861,12.68,74,0,0.45,US,1675223096
180,sur,22.5667,59.5289,20.1,69,6,2.59,OM,1675223096
181,margate,51.3813,1.3862,5.39,78,93,2.24,GB,1675223097
182,mayo,38.8876,-76.5119,3.3,88,100,2.57,US,1675223097
183,preobrazheniye,42.9019,133.9064,-3.21,79,100,2.24,RU,1675223098
184,baghdad,33.3406,44.4009,7.95,100,0,2.57,IQ,1675223088
185,swarzedz,52.4129,17.085,3.36,67,20,10.29,PL,1675223098
186,baykit,61.67,96.37,-19.04,100,100,0.51,RU,1675223099
187,grindavik,63.8424,-22.4338,-2.74,80,0,1.54,IS,1675223100
188,shimoda,34.6667,138.95,12.2,62,44,8.28,JP,1675223100
189,grande prairie,55.1667,-118.8027,-11.9,85,100,2.57,CA,1675222830
190,weihai,37.5017,122.1136,-0.72,51,65,10.87,CN,1675223101
191,kloulklubed,7.0419,134.2556,29.28,80,64,9.82,PW,1675222872
192,mehamn,71.0357,27.8492,0.97,64,40,8.23,NO,1675223102
193,kieta,-6.2167,155.6333,29.36,70,86,3.07,PG,1675223103
194,dauphin,51.1494,-100.0502,-24.92,70,0,4.12,CA,1675223104
195,bria,6.5423,21.9863,21.89,34,0,0.28,CF,1675223105
196,charlestown,-32.95,151.6667,28.06,73,27,2.68,AU,1675222974
197,ganzhou,28.8184,115.4327,20.04,33,0,1.75,CN,1675223107
198,barrow,71.2906,-156.7887,-20.99,77,0,11.83,US,1675223040
199,alofi,-19.0595,-169.9187,24.94,94,100,2.06,NU,1675223108
200,longyearbyen,78.2186,15.6401,-9.09,62,20,7.72,SJ,1675223096
201,los llanos de aridane,28.6585,-17.9182,13.86,77,40,4.12,ES,1675223109
202,gazanjyk,39.2446,55.5154,5.66,93,100,4.39,TM,1675223110
203,zdvinsk,54.7021,78.661,-22.78,99,47,1.63,RU,1675223111
204,lavrentiya,65.5833,-171.0,-12.24,98,97,2.37,RU,1675223112
205,atasu,48.6814,71.6433,-11.9,96,95,2.59,KZ,1675223113
206,nelson bay,-32.7167,152.15,27.83,75,42,4.47,AU,1675223114
207,hayden,47.766,-116.7866,-2.69,86,100,3.09,US,1675223115
208,klaksvik,62.2266,-6.589,3.51,91,96,11.95,FO,1675223115
209,san juan del sur,11.2529,-85.8705,24.73,80,22,9.23,NI,1675223116
210,horni jiretin,50.5731,13.5472,4.17,79,77,8.08,CZ,1675223117
211,cayenne,4.9333,-52.3333,23.02,100,0,0.51,GF,1675222978
212,nalut,30.3333,10.85,4.01,54,11,3.09,LY,1675223122
213,itoman,26.1247,127.6694,23.21,59,75,5.66,JP,1675223125
214,clyde river,70.4692,-68.5914,-30.87,69,0,2.57,CA,1675223127
215,tigzirt,36.8886,4.1198,8.03,64,0,2.62,DZ,1675223136
216,krasnoselkup,65.7,82.4667,-16.96,95,100,5.7,RU,1675223138
217,alenquer,-1.9417,-54.7383,22.2,94,93,1.48,BR,1675223139
218,benidorm,38.5382,-0.131,7.4,52,0,0.97,ES,1675223139
219,krasnaya gora,52.9995,31.6023,-2.68,96,100,2.85,RU,1675223140
220,tselina,46.5338,41.0328,2.1,92,100,1.33,RU,1675223140
221,haines junction,60.7522,-137.5108,-12.74,99,94,0.87,CA,1675223141
222,norman wells,65.282,-126.8329,-31.98,68,20,0.0,CA,1675223141
223,portland,45.5234,-122.6762,3.47,69,75,1.54,US,1675222690
224,verkhnevilyuysk,63.4453,120.3167,-29.74,97,100,3.87,RU,1675223142
225,ileza,61.0533,43.9002,-2.81,92,100,5.02,RU,1675223142
226,kendari,-3.945,122.4989,29.45,68,100,2.67,ID,1675223143
227,muscat,23.6139,58.5922,18.01,62,8,4.09,OM,1675222622
228,halifax,44.6453,-63.5724,-5.85,81,93,2.68,CA,1675222587
229,saldanha,-33.0117,17.9442,16.03,92,0,5.35,ZA,1675223144
230,grand gaube,-20.0064,57.6608,27.43,78,90,3.13,MU,1675223144
231,san cristobal,7.7669,-72.225,19.1,90,87,1.03,VE,1675223145
232,naze,28.3667,129.4833,20.51,65,79,6.07,JP,1675223145
233,makasar,-5.14,119.4221,31.03,62,20,4.12,ID,1675223146
234,mulege,26.8833,-111.9833,12.65,78,4,0.81,MX,1675223146
235,hasaki,35.7333,140.8333,13.45,41,39,11.68,JP,1675223147
236,along,28.1667,94.7667,22.71,37,9,0.3,IN,1675223147
237,mtama,-10.3,39.3667,22.75,91,9,1.03,TZ,1675223148
238,saint-joseph,-21.3667,55.6167,26.17,83,87,4.96,RE,1675223148
239,cherskiy,68.75,161.3,-24.65,100,56,2.74,RU,1675223149
240,turtas,58.9417,69.1325,-10.18,95,96,3.32,RU,1675223149
241,olafsvik,64.8945,-23.7142,-1.12,87,100,6.81,IS,1675223149
242,rawah,34.4816,41.9093,8.08,75,29,2.47,IQ,1675223150
243,shelburne,44.0787,-80.2041,-13.75,91,38,3.38,CA,1675223150
244,lompoc,34.6391,-120.4579,9.77,87,0,0.45,US,1675223151
245,coquimbo,-29.9533,-71.3436,16.85,94,20,2.57,CL,1675222867
246,paracuru,-3.41,-39.0306,27.28,90,86,4.45,BR,1675223151
247,kasongo-lunda,-6.4667,16.8167,19.56,98,93,0.66,CD,1675223152
248,miraflores,19.2167,-98.8083,18.36,53,0,1.6,MX,1675223152
249,jardim,-21.4803,-56.1381,21.41,98,100,1.15,BR,1675223153
250,mahebourg,-20.4081,57.7,27.36,83,75,3.09,MU,1675223153
251,roald,62.5833,6.1333,3.75,93,75,2.06,NO,1675223154
252,souillac,-20.5167,57.5167,26.21,83,75,3.09,MU,1675223154
253,rio gallegos,-51.6226,-69.2181,14.03,54,0,2.06,AR,1675222909
254,tadine,-21.55,167.8833,28.19,71,68,2.63,NC,1675223154
255,marystown,47.1666,-55.1483,-3.19,88,99,8.52,CA,1675223155
256,kruisfontein,-34.0033,24.7314,17.16,87,0,3.07,ZA,1675223155
257,hithadhoo,-0.6,73.0833,27.26,73,17,5.59,MV,1675223156
258,ahipara,-35.1667,173.1667,23.16,75,99,3.85,NZ,1675223156
259,shakhunya,57.6758,46.6114,-7.59,94,99,4.55,RU,1675223157
260,kuusamo,65.9667,29.1833,-7.98,93,100,2.57,FI,1675223157
261,bronnoysund,65.4625,12.1997,-1.0,86,100,3.09,NO,1675223157
262,egvekinot,66.3167,-179.1667,-8.59,96,99,2.26,RU,1675223158
263,puerto madryn,-42.7692,-65.0385,15.56,63,0,8.29,AR,1675222864
264,hohhot,40.8106,111.6522,-7.84,38,0,1.0,CN,1675223158
265,tripoli,32.8752,13.1875,12.81,61,78,6.06,LY,1675223159
266,samarai,-10.6167,150.6667,29.29,69,98,0.47,PG,1675223159
267,maxixe,-23.8597,35.3472,25.32,70,71,4.27,MZ,1675223161
268,provideniya,64.3833,-173.3,-3.94,100,100,2.0,RU,1675223162
269,madimba,-10.4,40.3333,24.44,91,4,1.07,TZ,1675223163
270,linhares,-19.3911,-40.0722,21.63,97,38,0.72,BR,1675223164
271,saint-francois,46.4154,3.9054,3.69,93,100,2.06,FR,1675223166
272,makat,47.6469,53.3463,-4.42,57,31,4.79,KZ,1675223167
273,lorengau,-2.0226,147.2712,28.19,75,61,3.72,PG,1675223167
274,yerbogachen,61.2767,108.0108,-26.17,99,96,1.32,RU,1675223168
275,paamiut,61.994,-49.6678,-9.96,71,100,4.73,GL,1675223169
276,qui nhon,13.7667,109.2333,24.38,76,48,3.17,VN,1675223170
277,berlevag,70.8578,29.0864,1.0,75,100,13.38,NO,1675223171
278,shuyskoye,59.3736,41.0305,-2.74,95,100,3.42,RU,1675223172
279,upington,-28.4478,21.2561,20.21,83,0,1.54,ZA,1675223172
280,rawson,-43.3002,-65.1023,15.51,59,0,8.59,AR,1675223173
281,santa rosalia,27.3167,-112.2833,14.27,65,88,1.01,MX,1675223174
282,socorro,31.6546,-106.3033,10.27,49,75,2.57,US,1675223175
283,saint-georges,12.0564,-61.7485,21.82,88,20,0.0,GD,1675223177
284,fort nelson,58.8053,-122.7002,-15.23,81,100,4.12,CA,1675223177
285,cidreira,-30.1811,-50.2056,23.61,92,0,1.87,BR,1675223179
286,darovskoy,58.77,47.9564,-7.05,94,100,4.45,RU,1675223180
287,kovalevskoye,45.1942,40.9761,2.39,96,100,1.71,RU,1675223182
288,bengkulu,-3.8004,102.2655,27.99,70,100,3.67,ID,1675223183
289,sandpoint,48.2766,-116.5533,-3.92,86,100,0.0,US,1675223148
290,kununurra,-15.7667,128.7333,31.99,66,75,1.54,AU,1675223185
291,hadishahr,38.8431,45.6635,-0.73,90,97,1.29,AZ,1675223187
292,mae chan,20.1467,99.8526,25.38,35,33,0.77,TH,1675223188
293,narsaq,60.9167,-46.05,-7.88,94,100,1.25,GL,1675223189
294,totolapan,18.5167,-96.1833,20.9,95,2,2.36,MX,1675223191
295,matay,28.419,30.7792,9.23,58,1,3.89,EG,1675223193
296,winneba,5.3511,-0.6231,25.16,87,32,0.93,GH,1675223193
297,millinocket,45.6573,-68.7098,-15.94,66,0,2.57,US,1675222916
298,bathsheba,13.2167,-59.5167,24.34,78,20,5.14,BB,1675223195
299,seoul,37.5683,126.9778,6.66,43,0,7.72,KR,1675223137
300,olinda,-8.0089,-34.8553,26.85,74,75,3.09,BR,1675223197
301,plettenberg bay,-34.0527,23.3716,18.76,83,0,3.05,ZA,1675223198
302,korsakov,46.6328,142.7813,-5.09,73,94,0.34,RU,1675223198
303,touros,-5.1989,-35.4608,26.23,74,100,5.88,BR,1675223143
304,salinopolis,-0.6136,-47.3561,23.83,94,100,0.96,BR,1675223199
305,chuncheng,22.1731,111.7886,24.86,51,9,1.36,CN,1675223200
306,krutinka,56.0055,71.5113,-14.82,90,77,3.53,RU,1675223201
307,manakara,-22.1333,48.0167,22.99,88,100,1.51,MG,1675223201
308,nanortalik,60.1432,-45.2371,-9.82,82,99,2.57,GL,1675223202
309,kurumkan,54.3,110.3,-19.46,89,53,0.57,RU,1675223202
310,lima,-12.0432,-77.0282,24.39,76,0,4.12,PE,1675223018
311,xinqing,48.2333,129.5,-12.31,61,42,4.09,CN,1675223203
312,bambous virieux,-20.3428,57.7575,27.34,83,75,3.09,MU,1675223203
313,zlitan,32.4674,14.5687,13.2,64,40,7.68,LY,1675223204
314,pandan,14.0453,124.1694,26.6,86,28,5.19,PH,1675223204
315,montes altos,-5.8333,-47.0667,22.23,95,100,1.34,BR,1675223204
316,murmashi,68.8154,32.8115,-6.77,100,75,0.0,RU,1675223205
317,slatina,44.4333,24.3667,0.26,85,94,3.68,RO,1675223205
318,hamilton,39.1834,-84.5333,-3.37,69,75,2.24,US,1675222935
319,lebedinyy,58.5167,125.5167,-25.24,88,100,4.38,RU,1675223206
320,ribeira grande,38.5167,-28.7,11.54,79,97,2.68,PT,1675223206
321,rio grande,-32.035,-52.0986,23.31,84,0,0.51,BR,1675222910
322,urucara,-2.5364,-57.76,22.37,99,100,1.26,BR,1675223207
323,nouadhibou,20.931,-17.0347,15.99,59,100,9.26,MR,1675223208
324,loreto,22.2667,-101.9667,14.16,51,16,2.53,MX,1675223208
325,tete,-16.1564,33.5867,24.05,100,40,1.54,MZ,1675223209
326,katherine,-14.4667,132.2667,29.18,74,75,5.66,AU,1675223106
327,kahului,20.8947,-156.47,25.47,79,20,5.14,US,1675223209
328,fukue,32.6881,128.8419,17.2,51,75,5.66,JP,1675223210
329,airai,-8.9266,125.4092,21.56,80,80,1.34,TL,1675223210
330,rocha,-34.4833,-54.3333,19.63,96,11,1.84,UY,1675223211
331,cheremukhovo,60.3484,59.9851,-7.14,89,82,3.23,RU,1675223211
332,gigmoto,13.7796,124.39,27.14,82,23,5.08,PH,1675223212
333,chernyshevskiy,63.0128,112.4714,-32.22,97,78,1.27,RU,1675223212
334,lagoa,39.05,-27.9833,13.88,68,99,5.12,PT,1675223213
335,barao de melgaco,-16.1944,-55.9675,22.6,94,99,1.62,BR,1675223213
336,mae hong son,19.3003,97.9685,22.08,73,52,1.03,TH,1675223214
337,port lincoln,-34.7333,135.8667,18.68,60,94,6.45,AU,1675223148
338,yetkul,54.8221,61.588,-17.57,95,42,1.81,RU,1675223214
339,adwa,14.1646,38.8955,14.64,69,97,1.16,ET,1675223215
340,cayhagan,9.6697,122.4256,29.27,68,70,6.31,PH,1675223215
341,upernavik,72.7868,-56.1549,-20.23,93,100,2.76,GL,1675223216
342,svetlaya,46.5389,138.3297,-9.0,49,100,0.76,RU,1675223216
343,marzuq,14.4,46.4667,16.02,35,42,2.1,YE,1675223217
344,westport,41.1415,-73.3579,1.02,57,0,3.6,US,1675222946
345,phitsanulok,16.9167,100.5,30.84,43,25,1.61,TH,1675223217
346,mecca,21.4267,39.8261,20.8,73,21,3.01,SA,1675223218
347,monrovia,6.3005,-10.7969,23.87,90,11,1.65,LR,1675223218
348,biak,-0.9131,122.8766,29.23,65,91,1.6,ID,1675223218
349,buenaventura,3.8801,-77.0312,23.16,95,18,0.96,CO,1675223219
350,ibirama,-27.0569,-49.5178,23.15,94,88,0.77,BR,1675223219
351,korla,41.7597,86.1469,-5.0,70,61,0.74,CN,1675223220
352,muzhi,65.3667,64.6667,-8.08,94,100,3.58,RU,1675223220
353,parana,-31.732,-60.5238,26.95,67,0,3.84,AR,1675223220
354,la palma,33.8464,-118.0467,15.52,34,0,1.34,US,1675223221
355,muros,42.7762,-9.0603,5.47,89,10,5.44,ES,1675223222
356,qasigiannguit,68.8193,-51.1922,-18.86,98,42,2.53,GL,1675223223
357,leander,30.5788,-97.8531,-1.36,89,100,3.13,US,1675223084
358,yongan,39.6957,113.6871,-8.34,32,100,2.36,CN,1675223224
359,ustynivka,47.9551,32.5367,0.44,76,100,2.71,UA,1675223225
360,qaqortoq,60.7167,-46.0333,-12.46,91,100,2.17,GL,1675223226
361,san roque,36.2107,-5.3842,8.46,81,40,2.06,ES,1675223227
362,shakhtinsk,49.71,72.5872,-19.39,100,52,1.21,KZ,1675223227
363,santa maria,-29.6842,-53.8069,22.61,88,0,1.54,BR,1675223228
364,paramonga,-10.6667,-77.8333,22.42,78,100,2.65,PE,1675223229
365,goderich,43.7501,-81.7165,-6.72,62,100,7.2,CA,1675223230
366,boyolangu,-8.1181,111.8935,29.73,64,97,1.54,ID,1675223230
367,camacha,33.0833,-16.3333,13.68,63,20,7.2,PT,1675223231
368,marsa matruh,31.3525,27.2453,11.11,71,0,10.29,EG,1675223232
369,taylor,32.3001,-99.8337,-3.3,80,20,1.54,US,1675223233
370,havelock,34.8791,-76.9013,14.97,89,100,0.0,US,1675223234
371,forestville,38.8451,-76.875,2.39,93,100,2.57,US,1675223237
372,sorland,67.667,12.6934,1.92,62,59,2.69,NO,1675223238
373,monchegorsk,67.9397,32.8739,-5.95,96,100,1.84,RU,1675223240
374,bac lieu,9.285,105.7244,25.52,81,100,3.53,VN,1675223241
375,port blair,11.6667,92.75,29.02,74,20,2.06,IN,1675223242
376,cabo san lucas,22.8909,-109.9124,18.67,65,67,2.14,MX,1675223230
377,nome,64.5011,-165.4064,-5.96,100,100,0.0,US,1675223244
378,assiniboia,49.6334,-105.9845,-16.1,72,58,3.09,CA,1675223245
379,tahoua,14.8888,5.2692,20.75,10,100,4.56,NE,1675223246
380,baruun-urt,46.6806,113.2792,-16.55,72,2,3.89,MN,1675223247
381,conakry,9.538,-13.6773,25.32,68,1,2.41,GN,1675223248
382,nioro,13.35,-15.75,20.7,18,11,2.92,GM,1675223248
383,ilulissat,69.2167,-51.1,-18.99,71,75,1.03,GL,1675223249
384,santa fe,-31.6333,-60.7,27.23,60,0,1.79,AR,1675223091
385,lamar,33.6668,-95.5836,-3.13,95,100,4.63,US,1675223250
386,huayang,34.4155,109.9939,1.84,24,77,1.64,CN,1675223251
387,ardahan,41.1087,42.7022,-10.52,95,99,0.64,TR,1675223252
388,faya,18.3851,42.4509,9.29,57,62,1.98,SA,1675223252
389,waw,7.7029,27.9953,23.38,20,7,1.23,SS,1675223253
390,acapulco,16.8634,-99.8901,26.9,78,0,3.09,MX,1675222797
391,sibiti,-3.6819,13.3499,20.03,99,96,0.65,CG,1675223254
392,hambantota,6.1241,81.1185,26.19,94,20,2.57,LK,1675223256
393,praia,14.9215,-23.5087,20.3,77,40,7.2,CV,1675223257
394,oistins,13.0667,-59.5333,24.05,78,20,5.14,BB,1675223259
395,myitkyina,25.3833,97.4,26.74,33,36,0.58,MM,1675223259
396,beloha,-25.1667,45.05,22.23,74,38,6.22,MG,1675223260
397,oranjemund,-28.55,16.4333,17.45,90,70,2.65,NA,1675223026
398,yarmouth,41.7057,-70.2286,-0.02,63,100,9.83,US,1675223261
399,binzhou,37.3667,118.0167,2.35,18,43,7.6,CN,1675223016
400,tevaitoa,-16.7833,-151.5,27.76,72,100,6.36,PF,1675223261
401,kyra,49.5776,111.9753,-14.75,68,16,1.76,RU,1675223262
402,fortuna,40.5982,-124.1573,6.19,85,0,0.0,US,1675223262
403,yaan,7.3833,8.5667,26.39,52,45,2.44,NG,1675223263
404,realeza,-25.7689,-53.5325,18.74,99,4,1.52,BR,1675223263
405,san juan,-31.5375,-68.5364,26.98,54,76,6.21,AR,1675223264
406,la romana,18.4273,-68.9728,21.2,94,20,2.06,DO,1675223264
407,bud,39.447,-86.1758,-4.99,71,100,2.41,US,1675223265
408,abha,18.2164,42.5053,9.14,62,0,0.0,SA,1675223265
409,sayyan,15.1718,44.3244,10.69,80,44,0.96,YE,1675223266
410,ardino,41.5833,25.1333,-2.74,81,29,2.17,BG,1675223266
411,zhuzhou,27.8333,113.15,14.07,37,0,2.7,CN,1675223267
412,kosa,59.9445,54.9977,-1.95,89,100,5.36,RU,1675223267
413,salisbury,51.0693,-1.7957,6.56,82,100,5.14,GB,1675223148
414,bhag,29.0415,67.8239,17.49,22,0,0.08,PK,1675223268
415,kampong chhnang,12.1667,104.55,29.5,49,52,4.15,KH,1675223269
416,nemuro,43.3236,145.575,-1.71,71,50,3.94,JP,1675223269
417,challapata,-18.9,-66.7667,10.82,68,89,2.21,BO,1675223269
418,cambridge,43.3601,-80.3127,-8.37,67,0,3.09,CA,1675222800
419,tomatlan,19.9333,-105.25,18.2,86,37,1.32,MX,1675223270
420,aginskoye,51.1,114.53,-13.61,68,4,6.32,RU,1675223271
421,jibuti,11.5,42.5,18.62,70,2,5.95,DJ,1675223271
422,nanzhang,31.7765,111.8386,11.58,22,0,6.78,CN,1675223271
423,port-cartier,50.0334,-66.8654,-17.18,93,3,3.32,CA,1675223272
424,maragogi,-9.0122,-35.2225,24.95,82,56,2.46,BR,1675223272
425,teya,60.3778,92.6267,-14.39,96,99,1.07,RU,1675223273
426,darhan,49.4867,105.9228,-16.48,82,100,2.59,MN,1675223273
427,esmeraldas,-19.7625,-44.3139,21.48,91,58,1.84,BR,1675223273
428,ust-kuyga,70.0167,135.6,-26.71,97,100,3.89,RU,1675223274
429,mandiana,10.6333,-8.6833,21.85,19,9,2.14,GN,1675223274
430,zharkovskiy,55.849,32.2697,-4.38,96,99,2.57,RU,1675223275
431,deputatskiy,69.3,139.9,-28.05,95,100,2.47,RU,1675223275
432,shahrud,36.4182,54.9763,3.49,96,100,2.16,IR,1675223276
433,bilibino,68.0546,166.4372,-14.43,88,96,2.41,RU,1675223276
434,vestmannaeyjar,63.4427,-20.2734,0.07,70,81,2.88,IS,1675223276
435,ancud,-41.8697,-73.8203,10.2,85,0,1.18,CL,1675223247
436,argir,61.9959,-6.7715,3.54,79,72,9.38,FO,1675223277
437,jumla,29.2747,82.1838,8.17,29,0,1.46,NP,1675223277
438,codajas,-3.8367,-62.0569,22.95,98,100,1.07,BR,1675223278
439,tignere,7.3667,12.65,18.86,23,1,0.64,CM,1675223278
440,beihai,21.4833,109.1,19.85,83,91,4.58,CN,1675223095
441,weyburn,49.6668,-103.8511,-21.88,77,99,2.57,CA,1675223279
442,pskov,57.8136,28.3496,-0.05,80,100,3.0,RU,1675223279
443,topolobampo,25.6,-109.05,15.95,77,100,2.57,MX,1675223280
444,skawina,49.9752,19.8287,2.43,84,75,7.2,PL,1675223280
445,bambanglipuro,-7.95,110.2833,29.4,67,100,3.28,ID,1675223281
446,xiaoshan,30.1675,120.2588,14.92,55,0,3.0,CN,1675223281
447,basco,20.4487,121.9702,24.17,72,94,7.27,PH,1675223282
448,khandagayty,50.7333,92.05,-20.93,99,98,1.05,RU,1675223282
449,miranda,3.2499,-76.2281,21.07,88,93,2.4,CO,1675223283
450,codrington,-38.2667,141.9667,16.72,45,100,5.13,AU,1675223284
451,meulaboh,4.1363,96.1285,27.89,64,95,1.27,ID,1675223285
452,kosh-agach,50.0,88.6667,-23.52,82,100,0.56,RU,1675223286
453,tocache,-8.1842,-76.5125,21.45,98,100,0.69,PE,1675223288
454,birao,10.2849,22.7882,21.33,16,6,2.97,CF,1675223288
455,salalah,17.0151,54.0924,21.05,68,75,2.06,OM,1675223289
456,novaya zaimka,56.4857,66.9241,-10.06,90,98,4.03,RU,1675223290
457,bilma,18.6853,12.9164,14.54,30,100,6.02,NE,1675223290
458,zhangye,38.9342,100.4517,-4.78,44,91,0.15,CN,1675223291
459,pimentel,-6.8367,-79.9342,23.16,68,0,5.14,PE,1675223292
460,narasannapeta,18.4167,84.05,26.93,44,55,3.37,IN,1675223293
461,kirksville,40.1948,-92.5833,-8.86,57,0,1.54,US,1675223174
462,wanaka,-44.7,169.15,23.95,59,100,1.34,NZ,1675223295
463,curvelo,-18.7564,-44.4308,22.04,74,98,2.11,BR,1675223297
464,erzin,36.9559,36.2,6.53,77,100,2.14,TR,1675223297
465,gamba,-2.65,10.0,24.67,89,95,2.51,GA,1675223298
466,yeppoon,-23.1333,150.7333,31.88,68,93,2.92,AU,1675223298
467,port macquarie,-31.4333,152.9167,28.27,63,6,6.4,AU,1675223300
468,grand-santi,4.25,-54.3833,21.12,99,82,0.8,GF,1675223301
469,praia da vitoria,38.7333,-27.0667,12.64,94,75,4.05,PT,1675223302
470,yatou,37.15,122.3833,-0.13,47,100,10.34,CN,1675223303
471,pozo colorado,-23.4923,-58.7972,22.98,96,1,2.0,PY,1675223304
472,bokhan,53.153,103.7714,-14.05,82,100,1.33,RU,1675223305
473,loukhi,66.0764,33.0381,-12.31,95,36,3.28,RU,1675223306
474,susehri,40.1644,38.0867,0.49,95,100,0.2,TR,1675223307
475,kenora,49.8167,-94.4337,-24.46,77,0,3.6,CA,1675223307
476,sa kaeo,13.75,102.3333,30.33,32,100,1.81,TH,1675223309
477,pyapon,16.2833,95.6833,29.27,47,42,2.12,MM,1675223310
478,statesboro,32.4488,-81.7832,16.93,94,75,0.0,US,1675223312
479,topeka,39.0483,-95.678,-4.94,61,0,2.06,US,1675223308
480,san policarpo,12.1791,125.5072,27.44,81,19,5.63,PH,1675223315
481,waddan,29.1614,16.139,7.09,77,5,3.59,LY,1675223317
482,vilhena,-12.7406,-60.1458,19.38,99,100,0.9,BR,1675223119
483,sijunjung,-0.6876,100.9537,24.49,90,100,0.58,ID,1675223319
484,pevek,69.7008,170.3133,-15.2,85,25,1.32,RU,1675223319
485,iskateley,67.6803,53.1512,-4.35,95,100,8.2,RU,1675223320
486,trapani,37.8333,12.6667,7.16,87,0,3.09,IT,1675223320
487,suntar,62.1444,117.6319,-29.3,93,70,2.91,RU,1675223321
488,taonan,45.3333,122.7833,-6.48,46,87,7.15,CN,1675223321
489,fairbanks,64.8378,-147.7164,-9.02,80,0,3.09,US,1675223252
490,yaring,6.8662,101.3689,26.53,75,100,3.22,TH,1675223322
491,puerto narino,-3.7703,-70.3831,21.96,98,100,1.2,CO,1675223322
492,berwick,41.0545,-76.2333,-0.56,67,94,1.59,US,1675223247
493,emba,48.8264,58.1442,-14.41,81,2,4.16,KZ,1675223323
494,eberndorf,46.5914,14.6436,-5.85,87,4,0.95,AT,1675223323
495,youkounkoun,12.5333,-13.1333,22.53,17,1,1.71,GN,1675223323
496,christchurch,-43.5333,172.6333,22.45,77,40,5.14,NZ,1675223305
497,emerald,-23.5333,148.1667,33.5,45,59,3.68,AU,1675223324
498,cedar falls,42.5278,-92.4455,-13.73,71,0,2.06,US,1675223297
499,port moresby,-9.4431,147.1797,30.68,70,75,5.14,PG,1675223325
500,ilhabela,-23.7781,-45.3581,24.99,87,100,2.57,BR,1675223325
501,merauke,-8.4667,140.3333,29.73,71,100,4.05,ID,1675223326
502,linxia,35.6003,103.2064,-1.51,23,96,2.24,CN,1675223326
503,parbhani,19.2667,76.7833,23.01,43,4,5.09,IN,1675223183
504,esmeralda,21.8525,-78.1169,22.9,77,0,4.3,CU,1675223327
505,laredo,27.5064,-99.5075,4.16,100,100,5.14,US,1675223327
506,flin flon,54.7682,-101.865,-33.53,100,73,1.7,CA,1675223120
507,rudbar,30.15,62.6,14.43,45,0,9.04,AF,1675223328
508,rota,36.6224,-6.3586,5.12,81,0,2.06,ES,1675223329
509,waitara,-38.925,174.25,21.67,91,100,6.95,NZ,1675223329
510,xam nua,20.4197,104.0439,27.41,30,81,0.99,LA,1675223330
511,fort carson,38.7375,-104.7889,-4.77,74,0,3.6,US,1675223228
512,ambanja,-13.6833,48.45,24.96,89,51,1.12,MG,1675223330
513,dongsheng,39.8161,109.9776,-9.05,27,74,4.9,CN,1675223331
514,te anau,-45.4167,167.7167,21.37,71,100,0.93,NZ,1675223331
515,soldotna,60.4878,-151.0583,0.01,90,75,1.54,US,1675223332
516,ojinaga,29.5667,-104.4167,6.53,70,75,4.12,MX,1675223332
517,iqaluit,63.7506,-68.5145,-26.15,76,40,8.23,CA,1675223333
518,tabou,4.423,-7.3528,25.86,87,98,1.54,CI,1675223333
519,mindelo,16.8901,-24.9804,20.75,68,75,7.72,CV,1675223334
520,cap malheureux,-19.9842,57.6142,27.48,78,85,3.13,MU,1675223334
521,kankon,15.0167,74.0167,25.89,47,100,1.3,IN,1675223334
522,tupelo,34.2576,-88.7034,2.16,80,100,4.12,US,1675223335
523,calvinia,-31.4707,19.776,16.48,57,0,2.15,ZA,1675223335
524,yablonovo,50.8523,37.3574,-4.12,89,98,2.64,RU,1675223336
525,byron bay,-28.65,153.6167,29.41,77,40,4.67,AU,1675223336
526,kulhudhuffushi,6.6221,73.07,26.91,74,100,5.97,MV,1675223336
527,laguna,38.421,-121.4238,8.99,57,0,0.45,US,1675223337
528,kota kinabalu,5.9749,116.0724,29.99,79,20,1.03,MY,1675223337
529,ambon,-3.6954,128.1814,31.08,66,40,5.14,ID,1675223338
530,bandarbeyla,9.4942,50.8122,23.85,68,12,5.07,SO,1675223338
531,lyubinskiy,55.1542,72.6925,-20.74,96,41,2.77,RU,1675223339
532,ust-kut,56.7938,105.7672,-14.49,91,100,1.51,RU,1675223276
533,sagua la grande,22.8067,-80.0756,23.55,78,3,5.38,CU,1675223339
534,itarema,-2.9248,-39.9167,25.08,89,43,4.74,BR,1675223340
535,iquitos,-3.7481,-73.2472,26.02,89,40,1.03,PE,1675223340
536,maromitsa,59.8683,48.0123,-4.22,92,98,5.35,RU,1675223340
537,currais novos,-6.2608,-36.5178,22.45,85,64,5.93,BR,1675223341
538,ocos,14.5094,-92.1933,25.39,71,7,2.8,GT,1675223341
539,san luis,-33.295,-66.3356,24.46,58,58,3.82,AR,1675223112
540,akureyri,65.6835,-18.0878,-1.04,93,100,3.09,IS,1675223344
541,praid,46.55,25.1333,-4.27,98,100,1.48,RO,1675223345
542,san quintin,30.4833,-115.95,12.88,64,59,2.36,MX,1675223264
543,west helena,34.5507,-90.6418,-3.14,95,100,4.06,US,1675223347
544,warrington,53.3925,-2.5802,8.28,81,40,11.32,GB,1675223348
545,tiznit,29.5833,-9.5,9.61,27,36,7.02,MA,1675223350
546,ust-nera,64.5667,143.2,-22.94,95,100,1.79,RU,1675223350
547,mildura,-34.2,142.15,26.15,39,0,5.03,AU,1675223351
548,mazyr,52.0495,29.2456,-1.99,91,100,3.89,BY,1675223352
549,valdivia,-39.8142,-73.2459,15.05,69,0,1.3,CL,1675223163
550,kotdwara,29.75,78.5333,19.07,30,0,1.55,IN,1675223353
551,zhigansk,66.7697,123.3711,-28.48,98,100,2.88,RU,1675223354
552,knokke-heist,51.3333,3.3333,7.23,79,60,3.58,BE,1675223354
553,mitchell,43.7094,-98.0298,-17.01,71,0,2.06,US,1675223170
554,eyl,7.9803,49.8164,22.74,77,41,5.91,SO,1675223356
555,weligama,5.9667,80.4167,26.64,74,98,4.91,LK,1675223356
556,flinders,-34.5833,150.8552,25.14,66,4,4.54,AU,1675223357
557,cauquenes,-35.9671,-72.3225,13.88,48,0,0.88,CL,1675223358
558,mezhdurechenskiy,59.6,65.9333,-7.16,94,96,3.74,RU,1675223359
559,kalmunai,7.4167,81.8167,25.75,83,100,7.85,LK,1675223359
560,savannah bight,16.45,-85.85,26.36,76,6,9.81,HN,1675223361
561,quatre cocos,-20.2078,57.7625,27.27,72,98,6.32,MU,1675223362
562,clonakilty,51.6231,-8.8706,6.56,75,100,6.89,IE,1675223363
563,jiaohe,43.7286,127.3447,-7.84,79,99,2.98,CN,1675223364
564,tilichiki,60.4667,166.1,-11.78,92,100,3.39,RU,1675223365
565,zhezkazgan,47.8043,67.7144,-18.01,85,75,3.0,KZ,1675223366
566,pao de acucar,-9.7483,-37.4367,24.52,80,71,2.26,BR,1675223367
567,singkang,2.1006,102.7994,29.28,64,94,2.76,MY,1675223368
568,mandalgovi,45.7625,106.2708,-11.33,41,0,4.25,MN,1675223370
569,satun,6.8333,100.0,30.0,55,91,2.85,TH,1675223371
570,tahta,26.7693,31.5021,9.09,61,0,1.92,EG,1675223372
571,cobija,-11.0267,-68.7692,21.68,99,100,0.94,BO,1675223373
572,banda aceh,5.5577,95.3222,27.49,67,91,0.68,ID,1675223375
573,moindou,-21.6924,165.677,28.42,61,88,3.09,NC,1675223376
574,asekeyevo,53.5742,52.7972,-19.58,99,67,1.84,RU,1675223377
575,sironj,24.1,77.7,16.06,54,2,3.55,IN,1675223378
576,belmonte,-15.8631,-38.8828,24.31,82,4,1.73,BR,1675223379
577,horstel,52.3167,7.5833,5.81,64,100,8.35,DE,1675223380
578,skibbereen,51.55,-9.2667,9.5,77,100,7.7,IE,1675223380
579,sao francisco,-15.9486,-44.8644,20.78,78,39,1.26,BR,1675223302
580,amazar,53.858,120.875,-15.11,69,93,2.04,RU,1675223381
581,aksarka,66.5606,67.7975,-9.42,94,100,5.79,RU,1675223382
582,vila,42.0304,-8.1588,-1.51,84,57,1.83,PT,1675223382
583,ivankiv,50.9386,29.8943,-1.92,92,100,3.15,UA,1675223384
